{
  "clos": [
    {
      "id": "ELTApostoffice1",
      "info": {
        "organization": "ELTA",
        "physical_id": "1",
        "type": "station",
        "subtype": "post office",
        "name": "Distribution Unit Papagos",
        "location": {
          "address": "Amfissis 34",
          "city": "Cholargos",
          "country": "Greece",
          "latitude": 38.00357,
          "longitude": 23.8437
        }
      },
      "state": {
        "status": 1
      }
    },
    {
      "id": "ELTApostoffice2",
      "info": {
        "organization": "ELTA",
        "physical_id": "2",
        "type": "station",
        "subtype": "post office",
        "name": "KTEP North Athens (ELTA COURIER)",
        "location": {
          "address": "Irakleitou 62",
          "city": "Chalandri",
          "country": "Greece",
          "latitude": 38.02835,
          "longitude": 23.84423
        }
      },
      "state": {
        "status": 1
      }
    },
    {
      "id": "ELTApostoffice3",
      "info": {
        "organization": "ELTA",
        "physical_id": "3",
        "type": "station",
        "subtype": "post office",
        "name": "Papagou (Post Office)",
        "location": {
          "address": "Leukosias 25",
          "city": "Papagou",
          "country": "Greece",
          "latitude": 37.98949,
          "longitude": 23.79428
        }
      },
      "state": {
        "status": 1
      }
    },
    {
      "id": "ELTApostoffice4",
      "info": {
        "organization": "ELTA",
        "physical_id": "4",
        "type": "station",
        "subtype": "post office",
        "name": "Cholargou (Post Office)",
        "location": {
          "address": "Aspasias 70",
          "city": "Papagou",
          "country": "Greece",
          "latitude": 38.00034,
          "longitude": 23.79328
        }
      },
      "state": {
        "status": 1
      }
    },
    {
      "id": "ELTApostalbox5",
      "info": {
        "organization": "ELTA",
        "physical_id": "5",
        "type": "station",
        "subtype": "postal box",
        "name": "Red Box #1",
        "location": {
          "address": "Mesogeion Aven. 156-158",
          "city": "Papagou",
          "country": "Greece",
          "latitude": 37.99876,
          "longitude": 23.78431
        }
      },
      "state": {
        "status": 1
      }
    },
    {
      "id": "ELTApostalbox6",
      "info": {
        "organization": "ELTA",
        "physical_id": "6",
        "type": "station",
        "subtype": "postal box",
        "name": "Red Box #2",
        "location": {
          "address": "Mesogeion Aven. 260",
          "city": "Cholargos",
          "country": "Greece",
          "latitude": 38.00613,
          "longitude": 23.79713
        }
      },
      "state": {
        "status": 1
      }
    }
  ]
}